{
  "type": "FeatureCollection",
  "features": [
    {
      "type": "Feature",
      "geometry": {
        "type": "Point",
        "coordinates": [
          76.95237731481478,
          8.486626392592594
        ]
      },
      "properties": {}
    },
    {
      "type": "Feature",
      "geometry": {
        "type": "Point",
        "coordinates": [
          86.42864523243243,
          23.79146331891892
        ]
      },
      "properties": {}
    },
    {
      "type": "Feature",
      "geometry": {
        "type": "Point",
        "coordinates": [
          75.91964510833334,
          14.468000908333336
        ]
      },
      "properties": {}
    },
    {
      "type": "Feature",
      "geometry": {
        "type": "Point",
        "coordinates": [
          80.27698874999999,
          13.079558791666665
        ]
      },
      "properties": {}
    },
    {
      "type": "Feature",
      "geometry": {
        "type": "Point",
        "coordinates": [
          80.27269518148148,
          13.080617399999998
        ]
      },
      "properties": {}
    },
    {
      "type": "Feature",
      "geometry": {
        "type": "Point",
        "coordinates": [
          80.28241771500002,
          13.082697344999996
        ]
      },
      "properties": {}
    },
    {
      "type": "Feature",
      "geometry": {
        "type": "Point",
        "coordinates": [
          80.2819713,
          13.108914125
        ]
      },
      "properties": {}
    },
    {
      "type": "Feature",
      "geometry": {
        "type": "Point",
        "coordinates": [
          80.27128826999999,
          13.102094650000002
        ]
      },
      "properties": {}
    },
    {
      "type": "Feature",
      "geometry": {
        "type": "Point",
        "coordinates": [
          74.00209422500001,
          18.45731385
        ]
      },
      "properties": {}
    },
    {
      "type": "Feature",
      "geometry": {
        "type": "Point",
        "coordinates": [
          73.9544700764706,
          18.47282887647059
        ]
      },
      "properties": {}
    },
    {
      "type": "Feature",
      "geometry": {
        "type": "Point",
        "coordinates": [
          74.06426775,
          18.4628503
        ]
      },
      "properties": {}
    },
    {
      "type": "Feature",
      "geometry": {
        "type": "Point",
        "coordinates": [
          74.1182559,
          18.425786625
        ]
      },
      "properties": {}
    },
    {
      "type": "Feature",
      "geometry": {
        "type": "Point",
        "coordinates": [
          74.187042875,
          18.413878525
        ]
      },
      "properties": {}
    },
    {
      "type": "Feature",
      "geometry": {
        "type": "Point",
        "coordinates": [
          74.17165402500001,
          18.28718685
        ]
      },
      "properties": {}
    },
    {
      "type": "Feature",
      "geometry": {
        "type": "Point",
        "coordinates": [
          74.15549465,
          18.384291425
        ]
      },
      "properties": {}
    },
    {
      "type": "Feature",
      "geometry": {
        "type": "Point",
        "coordinates": [
          73.76472797,
          18.648675230000002
        ]
      },
      "properties": {}
    },
    {
      "type": "Feature",
      "geometry": {
        "type": "Point",
        "coordinates": [
          73.7917363,
          18.6403474125
        ]
      },
      "properties": {}
    },
    {
      "type": "Feature",
      "geometry": {
        "type": "Point",
        "coordinates": [
          73.83277484999999,
          18.580845675
        ]
      },
      "properties": {}
    },
    {
      "type": "Feature",
      "geometry": {
        "type": "Point",
        "coordinates": [
          73.820850375,
          18.6081174
        ]
      },
      "properties": {}
    },
    {
      "type": "Feature",
      "geometry": {
        "type": "Point",
        "coordinates": [
          73.80199315,
          18.6231854
        ]
      },
      "properties": {}
    },
    {
      "type": "Feature",
      "geometry": {
        "type": "Point",
        "coordinates": [
          84.86820742727272,
          19.330605618181817
        ]
      },
      "properties": {}
    },
    {
      "type": "Feature",
      "geometry": {
        "type": "Point",
        "coordinates": [
          74.13696184999999,
          18.493721625
        ]
      },
      "properties": {}
    },
    {
      "type": "Feature",
      "geometry": {
        "type": "Point",
        "coordinates": [
          76.9234490789474,
          15.145606105263159
        ]
      },
      "properties": {}
    },
    {
      "type": "Feature",
      "geometry": {
        "type": "Point",
        "coordinates": [
          67.32507712499999,
          29.863922825
        ]
      },
      "properties": {}
    },
    {
      "type": "Feature",
      "properties": {
        "name": "Kurduvadi Junction",
        "id": "KWV"
      },
      "geometry": {
        "type": "Point",
        "coordinates": [
          75.4179596,
          18.091833
        ]
      }
    },
    {
      "type": "Feature",
      "properties": {
        "name": "Palghar",
        "id": "PLG"
      },
      "geometry": {
        "type": "Point",
        "coordinates": [
          72.7718901,
          19.6989241
        ]
      }
    },
    {
      "type": "Feature",
      "properties": {
        "name": "Atari",
        "id": "ATT"
      },
      "geometry": {
        "type": "Point",
        "coordinates": [
          74.6076255,
          31.5945777
        ]
      }
    },
    {
      "type": "Feature",
      "properties": {
        "name": "Doraha",
        "id": "DOA"
      },
      "geometry": {
        "type": "Point",
        "coordinates": [
          76.0437233,
          30.8040813
        ]
      }
    },
    {
      "type": "Feature",
      "properties": {
        "name": "Nilaje",
        "id": "NIIJ"
      },
      "geometry": {
        "type": "Point",
        "coordinates": [
          73.080371,
          19.1546446
        ]
      }
    },
    {
      "type": "Feature",
      "properties": {
        "name": "Chintadripet",
        "id": "MCPT"
      },
      "geometry": {
        "type": "Point",
        "coordinates": [
          80.273818,
          13.0744312
        ]
      }
    },
    {
      "type": "Feature",
      "properties": {
        "name": "Greenways Road",
        "id": "GWYR"
      },
      "geometry": {
        "type": "Point",
        "coordinates": [
          80.2525988,
          13.0214775
        ]
      }
    },
    {
      "type": "Feature",
      "properties": {
        "name": "Kotturpuram",
        "id": "KPTM"
      },
      "geometry": {
        "type": "Point",
        "coordinates": [
          80.2484402,
          13.0145652
        ]
      }
    },
    {
      "type": "Feature",
      "properties": {
        "name": "Indira Nagar",
        "id": "INDR"
      },
      "geometry": {
        "type": "Point",
        "coordinates": [
          80.24981,
          12.9958128
        ]
      }
    },
    {
      "type": "Feature",
      "properties": {
        "name": "Taramani",
        "id": "TRMN"
      },
      "geometry": {
        "type": "Point",
        "coordinates": [
          80.2410567,
          12.9786135
        ]
      }
    },
    {
      "type": "Feature",
      "properties": {
        "name": "Perungudi",
        "id": "PRGD"
      },
      "geometry": {
        "type": "Point",
        "coordinates": [
          80.2320097,
          12.9758476
        ]
      }
    },
    {
      "type": "Feature",
      "properties": {
        "name": "Velachery",
        "id": "VLCY"
      },
      "geometry": {
        "type": "Point",
        "coordinates": [
          80.2194914,
          12.967293
        ]
      }
    },
    {
      "type": "Feature",
      "properties": {
        "name": "Bangalore Cantonment",
        "id": "BNC:1"
      },
      "geometry": {
        "type": "Point",
        "coordinates": [
          77.5980486,
          12.9938531
        ]
      }
    },
    {
      "type": "Feature",
      "properties": {
        "name": "Mandaveli",
        "id": "MNDY"
      },
      "geometry": {
        "type": "Point",
        "coordinates": [
          80.2605783,
          13.0278907
        ]
      }
    },
    {
      "type": "Feature",
      "properties": {
        "name": "Thirumayliai",
        "id": "MTMY"
      },
      "geometry": {
        "type": "Point",
        "coordinates": [
          80.2674139,
          13.035261
        ]
      }
    },
    {
      "type": "Feature",
      "properties": {
        "name": "Lighthouse",
        "id": "MLHS"
      },
      "geometry": {
        "type": "Point",
        "coordinates": [
          80.2767302,
          13.0449287
        ]
      }
    },
    {
      "type": "Feature",
      "properties": {
        "name": "Chetpet",
        "id": "MSC"
      },
      "geometry": {
        "type": "Point",
        "coordinates": [
          80.2426015,
          13.0741218
        ]
      }
    },
    {
      "type": "Feature",
      "properties": {
        "name": "Kasturibai Nagar",
        "id": "KTBR"
      },
      "geometry": {
        "type": "Point",
        "coordinates": [
          80.2478338,
          13.0062997
        ]
      }
    },
    {
      "type": "Feature",
      "properties": {
        "name": "Thiruvanmiyur",
        "id": "TYMR"
      },
      "geometry": {
        "type": "Point",
        "coordinates": [
          80.2515797,
          12.9888263
        ]
      }
    },
    {
      "type": "Feature",
      "properties": {
        "name": "Dwarka",
        "id": "DWK"
      },
      "geometry": {
        "type": "Point",
        "coordinates": [
          77.0227861,
          28.6149318
        ]
      }
    },
    {
      "type": "Feature",
      "properties": {
        "id": "CMP"
      },
      "geometry": {
        "type": "Point",
        "coordinates": [
          80.1410589,
          12.9515795
        ]
      }
    },
    {
      "type": "Feature",
      "properties": {
        "id": "TLM"
      },
      "geometry": {
        "type": "Point",
        "coordinates": [
          80.1657407,
          12.9802267
        ]
      }
    },
    {
      "type": "Feature",
      "properties": {
        "id": "PZA"
      },
      "geometry": {
        "type": "Point",
        "coordinates": [
          80.188045,
          12.9906065
        ]
      }
    },
    {
      "type": "Feature",
      "properties": {
        "id": "STM"
      },
      "geometry": {
        "type": "Point",
        "coordinates": [
          80.1993886,
          12.9948952
        ]
      }
    },
    {
      "type": "Feature",
      "properties": {
        "id": "MN"
      },
      "geometry": {
        "type": "Point",
        "coordinates": [
          80.1749398,
          12.9845195
        ]
      }
    },
    {
      "type": "Feature",
      "properties": {
        "id": "PV"
      },
      "geometry": {
        "type": "Point",
        "coordinates": [
          80.1524,
          12.9679
        ]
      }
    },
    {
      "type": "Feature",
      "properties": {
        "name": "Ghaziabad",
        "id": "GZB"
      },
      "geometry": {
        "type": "Point",
        "coordinates": [
          77.4280562,
          28.6530641
        ]
      }
    },
    {
      "type": "Feature",
      "properties": {
        "name": "Dankuni",
        "id": "DKAE"
      },
      "geometry": {
        "type": "Point",
        "coordinates": [
          88.2907291,
          22.677977
        ]
      }
    },
    {
      "type": "Feature",
      "properties": {
        "name": "Sealdah",
        "id": "SDAH"
      },
      "geometry": {
        "type": "Point",
        "coordinates": [
          88.3711047,
          22.5679661
        ]
      }
    },
    {
      "type": "Feature",
      "properties": {
        "name": "Bengaluru East",
        "id": "BNCE"
      },
      "geometry": {
        "type": "Point",
        "coordinates": [
          77.6180392,
          13.0014847
        ]
      }
    },
    {
      "type": "Feature",
      "properties": {
        "name": "Bellandur Road",
        "id": "BLRR"
      },
      "geometry": {
        "type": "Point",
        "coordinates": [
          77.7073017,
          12.937318
        ]
      }
    },
    {
      "type": "Feature",
      "properties": {
        "id": "GDY:2;3"
      },
      "geometry": {
        "type": "Point",
        "coordinates": [
          80.212708,
          13.0083355
        ]
      }
    },
    {
      "type": "Feature",
      "properties": {
        "name": "Tambaram",
        "id": "TBM"
      },
      "geometry": {
        "type": "Point",
        "coordinates": [
          80.1204848,
          12.9269774
        ]
      }
    },
    {
      "type": "Feature",
      "properties": {
        "name": "Kanchipuram",
        "id": "CJ"
      },
      "geometry": {
        "type": "Point",
        "coordinates": [
          79.7052303,
          12.8484576
        ]
      }
    },
    {
      "type": "Feature",
      "properties": {
        "name": "Hoshiarpur",
        "id": "HSX"
      },
      "geometry": {
        "type": "Point",
        "coordinates": [
          75.9058745,
          31.5244576
        ]
      }
    },
    {
      "type": "Feature",
      "properties": {
        "name": "Chengelpet Suburban",
        "id": "CGL"
      },
      "geometry": {
        "type": "Point",
        "coordinates": [
          79.9809874,
          12.6933789
        ]
      }
    },
    {
      "type": "Feature",
      "properties": {
        "name": "Etawah",
        "id": "ETW"
      },
      "geometry": {
        "type": "Point",
        "coordinates": [
          79.0209671,
          26.7872369
        ]
      }
    },
    {
      "type": "Feature",
      "properties": {
        "name": "Kozhikode",
        "id": "CLT"
      },
      "geometry": {
        "type": "Point",
        "coordinates": [
          75.7809589,
          11.2463579
        ]
      }
    },
    {
      "type": "Feature",
      "properties": {
        "name": "Badlapur",
        "id": "BUD"
      },
      "geometry": {
        "type": "Point",
        "coordinates": [
          73.2384562,
          19.1668539
        ]
      }
    },
    {
      "type": "Feature",
      "properties": {
        "name": "Lonavala",
        "id": "LNL"
      },
      "geometry": {
        "type": "Point",
        "coordinates": [
          73.4082044,
          18.749251
        ]
      }
    },
    {
      "type": "Feature",
      "properties": {
        "name": "Wellington",
        "id": "WEL"
      },
      "geometry": {
        "type": "Point",
        "coordinates": [
          76.7862025,
          11.3566101
        ]
      }
    },
    {
      "type": "Feature",
      "properties": {
        "name": "Ketti",
        "id": "KXT"
      },
      "geometry": {
        "type": "Point",
        "coordinates": [
          76.7374181,
          11.3820275
        ]
      }
    },
    {
      "type": "Feature",
      "properties": {
        "name": "Lovedale",
        "id": "LOV"
      },
      "geometry": {
        "type": "Point",
        "coordinates": [
          76.7047401,
          11.3835806
        ]
      }
    },
    {
      "type": "Feature",
      "properties": {
        "name": "Vaniyambadi",
        "id": "VN"
      },
      "geometry": {
        "type": "Point",
        "coordinates": [
          78.6221127,
          12.678527
        ]
      }
    },
    {
      "type": "Feature",
      "properties": {
        "name": "Khairatabad",
        "id": "KQD"
      },
      "geometry": {
        "type": "Point",
        "coordinates": [
          78.4611879,
          17.4129881
        ]
      }
    },
    {
      "type": "Feature",
      "properties": {
        "name": "Babatpur",
        "id": "BTP"
      },
      "geometry": {
        "type": "Point",
        "coordinates": [
          82.8807152,
          25.453525
        ]
      }
    },
    {
      "type": "Feature",
      "properties": {
        "name": "Kashi",
        "id": "KEI"
      },
      "geometry": {
        "type": "Point",
        "coordinates": [
          83.0318039,
          25.3268078
        ]
      }
    },
    {
      "type": "Feature",
      "properties": {
        "name": "Varanasi City",
        "id": "BCY"
      },
      "geometry": {
        "type": "Point",
        "coordinates": [
          83.0145644,
          25.3346395
        ]
      }
    },
    {
      "type": "Feature",
      "properties": {
        "name": "Varanasi Junction",
        "id": "BSB"
      },
      "geometry": {
        "type": "Point",
        "coordinates": [
          82.9857925,
          25.3274546
        ]
      }
    },
    {
      "type": "Feature",
      "properties": {
        "name": "Sarnath",
        "id": "SRNT"
      },
      "geometry": {
        "type": "Point",
        "coordinates": [
          83.0327972,
          25.3760282
        ]
      }
    },
    {
      "type": "Feature",
      "properties": {
        "name": "Kaniyapuram",
        "id": "KXP"
      },
      "geometry": {
        "type": "Point",
        "coordinates": [
          76.8546509,
          8.5872074
        ]
      }
    },
    {
      "type": "Feature",
      "properties": {
        "name": "Manduadih",
        "id": "MUV"
      },
      "geometry": {
        "type": "Point",
        "coordinates": [
          82.9723727,
          25.300348
        ]
      }
    },
    {
      "type": "Feature",
      "properties": {
        "name": "Ajni",
        "id": "AJNI"
      },
      "geometry": {
        "type": "Point",
        "coordinates": [
          79.0827146,
          21.1271828
        ]
      }
    },
    {
      "type": "Feature",
      "properties": {
        "name": "Mangalore Junction",
        "id": "MAJN:1"
      },
      "geometry": {
        "type": "Point",
        "coordinates": [
          74.8795068,
          12.8664586
        ]
      }
    },
    {
      "type": "Feature",
      "properties": {
        "name": "Mulki",
        "id": "MULK"
      },
      "geometry": {
        "type": "Point",
        "coordinates": [
          74.805533,
          13.0688824
        ]
      }
    },
    {
      "type": "Feature",
      "properties": {
        "name": "Badnera Junction",
        "id": "BD"
      },
      "geometry": {
        "type": "Point",
        "coordinates": [
          77.733658,
          20.857297
        ]
      }
    },
    {
      "type": "Feature",
      "properties": {
        "name": "Padil",
        "id": "PADL"
      },
      "geometry": {
        "type": "Point",
        "coordinates": [
          74.8941686,
          12.8751669
        ]
      }
    },
    {
      "type": "Feature",
      "properties": {
        "name": "Raja Ki Mandi",
        "id": "RKM"
      },
      "geometry": {
        "type": "Point",
        "coordinates": [
          77.9966706,
          27.194693
        ]
      }
    },
    {
      "type": "Feature",
      "properties": {
        "name": "Itwari",
        "id": "ITR"
      },
      "geometry": {
        "type": "Point",
        "coordinates": [
          79.1217877,
          21.1576956
        ]
      }
    },
    {
      "type": "Feature",
      "properties": {
        "name": "Tumsar Road",
        "id": "TMR"
      },
      "geometry": {
        "type": "Point",
        "coordinates": [
          79.7521082,
          21.3423737
        ]
      }
    },
    {
      "type": "Feature",
      "properties": {
        "name": "Gondia Junction",
        "id": "G"
      },
      "geometry": {
        "type": "Point",
        "coordinates": [
          80.1931402,
          21.4618029
        ]
      }
    },
    {
      "type": "Feature",
      "properties": {
        "name": "Raj Nandgaon",
        "id": "RJN"
      },
      "geometry": {
        "type": "Point",
        "coordinates": [
          81.0378187,
          21.1010841
        ]
      }
    },
    {
      "type": "Feature",
      "properties": {
        "name": "Malakpet",
        "id": "MXT"
      },
      "geometry": {
        "type": "Point",
        "coordinates": [
          78.4948516,
          17.3761818
        ]
      }
    },
    {
      "type": "Feature",
      "properties": {
        "name": "Kacheguda",
        "id": "KCG"
      },
      "geometry": {
        "type": "Point",
        "coordinates": [
          78.4995741,
          17.3893193
        ]
      }
    },
    {
      "type": "Feature",
      "properties": {
        "name": "Kengeri",
        "id": "KGI"
      },
      "geometry": {
        "type": "Point",
        "coordinates": [
          77.4838802,
          12.9175587
        ]
      }
    },
    {
      "type": "Feature",
      "properties": {
        "name": "Nayandahalli",
        "id": "NYH"
      },
      "geometry": {
        "type": "Point",
        "coordinates": [
          77.5211947,
          12.9414492
        ]
      }
    },
    {
      "type": "Feature",
      "properties": {
        "name": "Chikka Banavara",
        "id": "BAW"
      },
      "geometry": {
        "type": "Point",
        "coordinates": [
          77.5058564,
          13.0749263
        ]
      }
    },
    {
      "type": "Feature",
      "properties": {
        "name": "Jamai Osmania",
        "id": "JOO"
      },
      "geometry": {
        "type": "Point",
        "coordinates": [
          78.5183916,
          17.4119108
        ]
      }
    },
    {
      "type": "Feature",
      "properties": {
        "name": "Arts College",
        "id": "ATC"
      },
      "geometry": {
        "type": "Point",
        "coordinates": [
          78.5199827,
          17.4186683
        ]
      }
    },
    {
      "type": "Feature",
      "properties": {
        "name": "Moula Ali",
        "id": "MLY"
      },
      "geometry": {
        "type": "Point",
        "coordinates": [
          78.55081,
          17.4406614
        ]
      }
    },
    {
      "type": "Feature",
      "properties": {
        "name": "Bahadurgarh",
        "id": "BGZ"
      },
      "geometry": {
        "type": "Point",
        "coordinates": [
          76.9307385,
          28.7013307
        ]
      }
    },
    {
      "type": "Feature",
      "properties": {
        "name": "Naihati Junction",
        "id": "NH"
      },
      "geometry": {
        "type": "Point",
        "coordinates": [
          88.4176531,
          22.8870061
        ]
      }
    },
    {
      "type": "Feature",
      "properties": {
        "name": "Tribeni",
        "id": "TBAE"
      },
      "geometry": {
        "type": "Point",
        "coordinates": [
          88.3986415,
          22.9915968
        ]
      }
    },
    {
      "type": "Feature",
      "properties": {
        "name": "Prayag",
        "id": "PRG"
      },
      "geometry": {
        "type": "Point",
        "coordinates": [
          81.8677005,
          25.4689167
        ]
      }
    },
    {
      "type": "Feature",
      "properties": {
        "name": "SaraiChandi Railway Station",
        "id": "syc"
      },
      "geometry": {
        "type": "Point",
        "coordinates": [
          81.9935461,
          25.5389575
        ]
      }
    },
    {
      "type": "Feature",
      "properties": {
        "name": "Phulpur Railway station",
        "id": "plp"
      },
      "geometry": {
        "type": "Point",
        "coordinates": [
          82.0908791,
          25.5516193
        ]
      }
    },
    {
      "type": "Feature",
      "properties": {
        "name": "Manauri",
        "id": "MRE"
      },
      "geometry": {
        "type": "Point",
        "coordinates": [
          81.6619051,
          25.4698192
        ]
      }
    },
    {
      "type": "Feature",
      "properties": {
        "name": "Danapur",
        "id": "DNR"
      },
      "geometry": {
        "type": "Point",
        "coordinates": [
          85.0478765,
          25.5823522
        ]
      }
    },
    {
      "type": "Feature",
      "properties": {
        "name": "Patna Junction",
        "id": "PNBE"
      },
      "geometry": {
        "type": "Point",
        "coordinates": [
          85.1377183,
          25.6032219
        ]
      }
    },
    {
      "type": "Feature",
      "properties": {
        "name": "Chaukhandi",
        "id": "CHH"
      },
      "geometry": {
        "type": "Point",
        "coordinates": [
          82.8351349,
          25.3396064
        ]
      }
    },
    {
      "type": "Feature",
      "properties": {
        "name": "Agra Fort",
        "id": "AF"
      },
      "geometry": {
        "type": "Point",
        "coordinates": [
          78.0185149,
          27.182658
        ]
      }
    },
    {
      "type": "Feature",
      "properties": {
        "name": "Allahabad City",
        "id": "ALY"
      },
      "geometry": {
        "type": "Point",
        "coordinates": [
          81.8498592,
          25.4394887
        ]
      }
    },
    {
      "type": "Feature",
      "properties": {
        "name": "Dahar Ka Balaji",
        "id": "DKBJ"
      },
      "geometry": {
        "type": "Point",
        "coordinates": [
          75.7659146,
          26.9442935
        ]
      }
    },
    {
      "type": "Feature",
      "properties": {
        "name": "Govind Garh",
        "id": "GVH"
      },
      "geometry": {
        "type": "Point",
        "coordinates": [
          75.6459134,
          27.2402968
        ]
      }
    },
    {
      "type": "Feature",
      "properties": {
        "name": "Dhaurmui Jaghna",
        "id": "DUM"
      },
      "geometry": {
        "type": "Point",
        "coordinates": [
          77.5363631,
          27.291892
        ]
      }
    },
    {
      "type": "Feature",
      "properties": {
        "name": "Nagda Junction",
        "id": "NAD"
      },
      "geometry": {
        "type": "Point",
        "coordinates": [
          75.4123267,
          23.4562425
        ]
      }
    },
    {
      "type": "Feature",
      "properties": {
        "name": "Dhaulpur",
        "id": "DHO"
      },
      "geometry": {
        "type": "Point",
        "coordinates": [
          77.9057484,
          26.6979012
        ]
      }
    },
    {
      "type": "Feature",
      "properties": {
        "name": "Hetampur",
        "id": "HET"
      },
      "geometry": {
        "type": "Point",
        "coordinates": [
          77.9452007,
          26.60805
        ]
      }
    },
    {
      "type": "Feature",
      "properties": {
        "name": "Shivpuri",
        "id": "SVPI"
      },
      "geometry": {
        "type": "Point",
        "coordinates": [
          77.6377714,
          25.438236
        ]
      }
    },
    {
      "type": "Feature",
      "properties": {
        "name": "Anand Junction",
        "id": "ANND"
      },
      "geometry": {
        "type": "Point",
        "coordinates": [
          72.9666749,
          22.5611562
        ]
      }
    },
    {
      "type": "Feature",
      "properties": {
        "name": "Vishwamitri Junction",
        "id": "VS"
      },
      "geometry": {
        "type": "Point",
        "coordinates": [
          73.1788754,
          22.2844621
        ]
      }
    },
    {
      "type": "Feature",
      "properties": {
        "name": "Makarpura",
        "id": "MPR"
      },
      "geometry": {
        "type": "Point",
        "coordinates": [
          73.1758701,
          22.2337049
        ]
      }
    },
    {
      "type": "Feature",
      "properties": {
        "name": "Itola",
        "id": "ITA"
      },
      "geometry": {
        "type": "Point",
        "coordinates": [
          73.1571033,
          22.1503235
        ]
      }
    },
    {
      "type": "Feature",
      "properties": {
        "name": "Secunderabad Junction",
        "id": "SC"
      },
      "geometry": {
        "type": "Point",
        "coordinates": [
          78.501878,
          17.4336677
        ]
      }
    },
    {
      "type": "Feature",
      "properties": {
        "name": "Naroda",
        "id": "NRD"
      },
      "geometry": {
        "type": "Point",
        "coordinates": [
          72.6584406,
          23.0861141
        ]
      }
    },
    {
      "type": "Feature",
      "properties": {
        "name": "Polur",
        "id": "PRL"
      },
      "geometry": {
        "type": "Point",
        "coordinates": [
          79.1303257,
          12.5102122
        ]
      }
    },
    {
      "type": "Feature",
      "properties": {
        "name": "Maninagar",
        "id": "MAN"
      },
      "geometry": {
        "type": "Point",
        "coordinates": [
          72.6117305,
          22.9982666
        ]
      }
    },
    {
      "type": "Feature",
      "properties": {
        "name": "Kappil",
        "id": "KFI"
      },
      "geometry": {
        "type": "Point",
        "coordinates": [
          76.6794751,
          8.7796112
        ]
      }
    },
    {
      "type": "Feature",
      "properties": {
        "name": "Paravur",
        "id": "PVU"
      },
      "geometry": {
        "type": "Point",
        "coordinates": [
          76.6691471,
          8.8150911
        ]
      }
    },
    {
      "type": "Feature",
      "properties": {
        "name": "Settigunta",
        "id": "SF"
      },
      "geometry": {
        "type": "Point",
        "coordinates": [
          79.3822587,
          13.8751507
        ]
      }
    },
    {
      "type": "Feature",
      "properties": {
        "name": "Nagothane",
        "id": "NGTN"
      },
      "geometry": {
        "type": "Point",
        "coordinates": [
          73.140688,
          18.5408269
        ]
      }
    },
    {
      "type": "Feature",
      "properties": {
        "name": "Pune Junction",
        "id": "PUNE"
      },
      "geometry": {
        "type": "Point",
        "coordinates": [
          73.8744146,
          18.5288773
        ]
      }
    },
    {
      "type": "Feature",
      "properties": {
        "name": "Belapur",
        "id": "BAP"
      },
      "geometry": {
        "type": "Point",
        "coordinates": [
          73.0390911,
          19.0189141
        ]
      }
    },
    {
      "type": "Feature",
      "properties": {
        "name": "Chandigarh",
        "id": "CDG"
      },
      "geometry": {
        "type": "Point",
        "coordinates": [
          76.8217564,
          30.7021115
        ]
      }
    },
    {
      "type": "Feature",
      "properties": {
        "name": "Dhulkot",
        "id": "DKT"
      },
      "geometry": {
        "type": "Point",
        "coordinates": [
          76.7880058,
          30.3961209
        ]
      }
    },
    {
      "type": "Feature",
      "properties": {
        "name": "Kurukshetra Junction",
        "id": "KKDE"
      },
      "geometry": {
        "type": "Point",
        "coordinates": [
          76.8526746,
          29.9689758
        ]
      }
    },
    {
      "type": "Feature",
      "properties": {
        "name": "Nilokheri",
        "id": "NLKR"
      },
      "geometry": {
        "type": "Point",
        "coordinates": [
          76.9251545,
          29.8318459
        ]
      }
    },
    {
      "type": "Feature",
      "properties": {
        "name": "Gharaunda",
        "id": "GRA"
      },
      "geometry": {
        "type": "Point",
        "coordinates": [
          76.9651253,
          29.5408959
        ]
      }
    },
    {
      "type": "Feature",
      "properties": {
        "name": "Rathdhana",
        "id": "RDDE"
      },
      "geometry": {
        "type": "Point",
        "coordinates": [
          77.059044,
          28.9036035
        ]
      }
    },
    {
      "type": "Feature",
      "properties": {
        "name": "Panipat Junction",
        "id": "PNP"
      },
      "geometry": {
        "type": "Point",
        "coordinates": [
          76.964085,
          29.3903294
        ]
      }
    },
    {
      "type": "Feature",
      "properties": {
        "name": "Narela",
        "id": "NUR"
      },
      "geometry": {
        "type": "Point",
        "coordinates": [
          77.0854132,
          28.8464144
        ]
      }
    },
    {
      "type": "Feature",
      "properties": {
        "name": "Badli",
        "id": "BHD"
      },
      "geometry": {
        "type": "Point",
        "coordinates": [
          77.1373488,
          28.746491
        ]
      }
    },
    {
      "type": "Feature",
      "properties": {
        "name": "Holambi Kalan",
        "id": "HUK"
      },
      "geometry": {
        "type": "Point",
        "coordinates": [
          77.1023071,
          28.8014859
        ]
      }
    },
    {
      "type": "Feature",
      "properties": {
        "name": "Kalka",
        "id": "KLK"
      },
      "geometry": {
        "type": "Point",
        "coordinates": [
          76.9320206,
          30.8386243
        ]
      }
    },
    {
      "type": "Feature",
      "properties": {
        "name": "Khanna",
        "id": "KNN"
      },
      "geometry": {
        "type": "Point",
        "coordinates": [
          76.2235619,
          30.7089134
        ]
      }
    },
    {
      "type": "Feature",
      "properties": {
        "name": "Rajpura Junction",
        "id": "RPJ"
      },
      "geometry": {
        "type": "Point",
        "coordinates": [
          76.5932098,
          30.4867373
        ]
      }
    },
    {
      "type": "Feature",
      "properties": {
        "name": "Goraya",
        "id": "GRY"
      },
      "geometry": {
        "type": "Point",
        "coordinates": [
          75.7739075,
          31.1295803
        ]
      }
    },
    {
      "type": "Feature",
      "properties": {
        "name": "Tundla Junction",
        "id": "TDL"
      },
      "geometry": {
        "type": "Point",
        "coordinates": [
          78.2343067,
          27.2075063
        ]
      }
    },
    {
      "type": "Feature",
      "properties": {
        "name": "Sithouli",
        "id": "STLI"
      },
      "geometry": {
        "type": "Point",
        "coordinates": [
          78.1868844,
          26.1466565
        ]
      }
    },
    {
      "type": "Feature",
      "properties": {
        "name": "Jhansi Junction",
        "id": "JHS"
      },
      "geometry": {
        "type": "Point",
        "coordinates": [
          78.5531478,
          25.444295
        ]
      }
    },
    {
      "type": "Feature",
      "properties": {
        "name": "Ammuguda",
        "id": "AMQ"
      },
      "geometry": {
        "type": "Point",
        "coordinates": [
          78.5270833,
          17.4860479
        ]
      }
    },
    {
      "type": "Feature",
      "properties": {
        "name": "Tirunelveli Junction",
        "id": "TEN"
      },
      "geometry": {
        "type": "Point",
        "coordinates": [
          77.7082063,
          8.732405
        ]
      }
    },
    {
      "type": "Feature",
      "properties": {
        "name": "Tenkasi",
        "id": "TSI"
      },
      "geometry": {
        "type": "Point",
        "coordinates": [
          77.3072239,
          8.9642955
        ]
      }
    },
    {
      "type": "Feature",
      "properties": {
        "name": "Shengottai",
        "id": "SCT"
      },
      "geometry": {
        "type": "Point",
        "coordinates": [
          77.2418907,
          8.9874468
        ]
      }
    },
    {
      "type": "Feature",
      "properties": {
        "name": "Jaisalmer",
        "id": "JSM"
      },
      "geometry": {
        "type": "Point",
        "coordinates": [
          70.9265571,
          26.9151973
        ]
      }
    },
    {
      "type": "Feature",
      "properties": {
        "name": "Odhaniya Chacha",
        "id": "OCH"
      },
      "geometry": {
        "type": "Point",
        "coordinates": [
          71.7237121,
          26.9709637
        ]
      }
    },
    {
      "type": "Feature",
      "properties": {
        "name": "Ashapura Gomat",
        "id": "AQG"
      },
      "geometry": {
        "type": "Point",
        "coordinates": [
          71.8903518,
          26.9492908
        ]
      }
    },
    {
      "type": "Feature",
      "properties": {
        "name": "Pokharan",
        "id": "POK"
      },
      "geometry": {
        "type": "Point",
        "coordinates": [
          71.921771,
          26.9309862
        ]
      }
    },
    {
      "type": "Feature",
      "properties": {
        "name": "Ramdevra",
        "id": "RDRA"
      },
      "geometry": {
        "type": "Point",
        "coordinates": [
          71.9304396,
          27.006955
        ]
      }
    },
    {
      "type": "Feature",
      "properties": {
        "name": "Samrau",
        "id": "SRK"
      },
      "geometry": {
        "type": "Point",
        "coordinates": [
          72.7218235,
          26.8667931
        ]
      }
    },
    {
      "type": "Feature",
      "properties": {
        "name": "Kolayat",
        "id": "KLYT"
      },
      "geometry": {
        "type": "Point",
        "coordinates": [
          72.9545081,
          27.835222
        ]
      }
    },
    {
      "type": "Feature",
      "properties": {
        "name": "Lalgarh Junction",
        "id": "LGH"
      },
      "geometry": {
        "type": "Point",
        "coordinates": [
          73.3143261,
          28.0437017
        ]
      }
    },
    {
      "type": "Feature",
      "properties": {
        "name": "Bikaner Junction",
        "id": "BKN"
      },
      "geometry": {
        "type": "Point",
        "coordinates": [
          73.3162188,
          28.0141354
        ]
      }
    },
    {
      "type": "Feature",
      "properties": {
        "name": "Nokha",
        "id": "NOK"
      },
      "geometry": {
        "type": "Point",
        "coordinates": [
          73.4762588,
          27.5547103
        ]
      }
    },
    {
      "type": "Feature",
      "properties": {
        "name": "Nagaur",
        "id": "NGO"
      },
      "geometry": {
        "type": "Point",
        "coordinates": [
          73.7233966,
          27.1999383
        ]
      }
    },
    {
      "type": "Feature",
      "properties": {
        "name": "Marwar Mundwa",
        "id": "MDW"
      },
      "geometry": {
        "type": "Point",
        "coordinates": [
          73.8160919,
          27.062858
        ]
      }
    },
    {
      "type": "Feature",
      "properties": {
        "name": "Munabao",
        "id": "MBF"
      },
      "geometry": {
        "type": "Point",
        "coordinates": [
          70.277243,
          25.7436028
        ]
      }
    },
    {
      "type": "Feature",
      "properties": {
        "name": "Besroli",
        "id": "BSRL"
      },
      "geometry": {
        "type": "Point",
        "coordinates": [
          74.561521,
          26.9912253
        ]
      }
    },
    {
      "type": "Feature",
      "properties": {
        "name": "Thathana Mithri",
        "id": "THMR"
      },
      "geometry": {
        "type": "Point",
        "coordinates": [
          74.8986398,
          27.0548214
        ]
      }
    },
    {
      "type": "Feature",
      "properties": {
        "name": "Saradhna",
        "id": "SDH"
      },
      "geometry": {
        "type": "Point",
        "coordinates": [
          74.5664863,
          26.3403296
        ]
      }
    },
    {
      "type": "Feature",
      "properties": {
        "name": "Piplaj",
        "id": "PPF"
      },
      "geometry": {
        "type": "Point",
        "coordinates": [
          74.3800786,
          26.1667875
        ]
      }
    },
    {
      "type": "Feature",
      "properties": {
        "name": "Beawar",
        "id": "BER"
      },
      "geometry": {
        "type": "Point",
        "coordinates": [
          74.3132051,
          26.1076485
        ]
      }
    },
    {
      "type": "Feature",
      "properties": {
        "name": "Charbhuja Road",
        "id": "CBG"
      },
      "geometry": {
        "type": "Point",
        "coordinates": [
          73.9213014,
          25.3007053
        ]
      }
    },
    {
      "type": "Feature",
      "properties": {
        "name": "Jalor",
        "id": "JOR"
      },
      "geometry": {
        "type": "Point",
        "coordinates": [
          72.634163,
          25.3546763
        ]
      }
    },
    {
      "type": "Feature",
      "properties": {
        "name": "Marwar Bhinmal",
        "id": "MBNL"
      },
      "geometry": {
        "type": "Point",
        "coordinates": [
          72.2772769,
          25.00153
        ]
      }
    },
    {
      "type": "Feature",
      "properties": {
        "name": "Bhildi Junction",
        "id": "BLDI"
      },
      "geometry": {
        "type": "Point",
        "coordinates": [
          72.0100423,
          24.1949077
        ]
      }
    },
    {
      "type": "Feature",
      "properties": {
        "name": "Santalpur",
        "id": "SNLR"
      },
      "geometry": {
        "type": "Point",
        "coordinates": [
          71.1822358,
          23.7598369
        ]
      }
    },
    {
      "type": "Feature",
      "properties": {
        "name": "Piprala",
        "id": "PFL"
      },
      "geometry": {
        "type": "Point",
        "coordinates": [
          71.094578,
          23.6498378
        ]
      }
    },
    {
      "type": "Feature",
      "properties": {
        "name": "Samakhyali Junction",
        "id": "SIOB"
      },
      "geometry": {
        "type": "Point",
        "coordinates": [
          70.5029738,
          23.3098312
        ]
      }
    },
    {
      "type": "Feature",
      "properties": {
        "name": "Attur",
        "id": "ATU"
      },
      "geometry": {
        "type": "Point",
        "coordinates": [
          78.5925939,
          11.5952414
        ]
      }
    },
    {
      "type": "Feature",
      "properties": {
        "name": "Dharmapuri",
        "id": "DPJ"
      },
      "geometry": {
        "type": "Point",
        "coordinates": [
          78.1542475,
          12.1256327
        ]
      }
    },
    {
      "type": "Feature",
      "properties": {
        "name": "Sadulshahr",
        "id": "SDS"
      },
      "geometry": {
        "type": "Point",
        "coordinates": [
          74.1727045,
          29.9026414
        ]
      }
    },
    {
      "type": "Feature",
      "properties": {
        "name": "Manaksar",
        "id": "MNSR"
      },
      "geometry": {
        "type": "Point",
        "coordinates": [
          74.3738713,
          29.6669593
        ]
      }
    },
    {
      "type": "Feature",
      "properties": {
        "name": "Hanumangarh Town",
        "id": "HMO"
      },
      "geometry": {
        "type": "Point",
        "coordinates": [
          74.3312019,
          29.5742205
        ]
      }
    },
    {
      "type": "Feature",
      "properties": {
        "name": "Churu Junction",
        "id": "CUR"
      },
      "geometry": {
        "type": "Point",
        "coordinates": [
          74.9665533,
          28.2887366
        ]
      }
    },
    {
      "type": "Feature",
      "properties": {
        "name": "Ratangarh West",
        "id": "RXW"
      },
      "geometry": {
        "type": "Point",
        "coordinates": [
          74.6102043,
          28.0727853
        ]
      }
    },
    {
      "type": "Feature",
      "properties": {
        "name": "Napasar",
        "id": "NPS"
      },
      "geometry": {
        "type": "Point",
        "coordinates": [
          73.5641988,
          27.9812615
        ]
      }
    },
    {
      "type": "Feature",
      "properties": {
        "name": "Suratgarh Junction",
        "id": "SOG"
      },
      "geometry": {
        "type": "Point",
        "coordinates": [
          73.907612,
          29.3233486
        ]
      }
    },
    {
      "type": "Feature",
      "properties": {
        "name": "Loharu Junction",
        "id": "LHU:3;4"
      },
      "geometry": {
        "type": "Point",
        "coordinates": [
          75.8029331,
          28.4270562
        ]
      }
    },
    {
      "type": "Feature",
      "properties": {
        "name": "Jhilo",
        "id": "JLLO"
      },
      "geometry": {
        "type": "Point",
        "coordinates": [
          75.8869695,
          27.8492908
        ]
      }
    },
    {
      "type": "Feature",
      "properties": {
        "name": "Narnaul",
        "id": "NNL"
      },
      "geometry": {
        "type": "Point",
        "coordinates": [
          76.1233111,
          28.0445046
        ]
      }
    },
    {
      "type": "Feature",
      "properties": {
        "name": "Jaswantgarh",
        "id": "JSH"
      },
      "geometry": {
        "type": "Point",
        "coordinates": [
          74.4426125,
          27.6677255
        ]
      }
    },
    {
      "type": "Feature",
      "properties": {
        "name": "Gulabpura",
        "id": "GBP"
      },
      "geometry": {
        "type": "Point",
        "coordinates": [
          74.6557626,
          25.9025424
        ]
      }
    },
    {
      "type": "Feature",
      "properties": {
        "name": "Shri Ghasinagar",
        "id": "SHGN"
      },
      "geometry": {
        "type": "Point",
        "coordinates": [
          76.6711709,
          27.1061637
        ]
      }
    },
    {
      "type": "Feature",
      "properties": {
        "name": "Punalur",
        "id": "PUU"
      },
      "geometry": {
        "type": "Point",
        "coordinates": [
          76.916507,
          9.0229137
        ]
      }
    },
    {
      "type": "Feature",
      "properties": {
        "name": "Ponmalai Golden Rock",
        "id": "GOC"
      },
      "geometry": {
        "type": "Point",
        "coordinates": [
          78.710475,
          10.7918622
        ]
      }
    },
    {
      "type": "Feature",
      "properties": {
        "name": "Hosur",
        "id": "HSRA"
      },
      "geometry": {
        "type": "Point",
        "coordinates": [
          77.82303,
          12.7184874
        ]
      }
    },
    {
      "type": "Feature",
      "properties": {
        "name": "Pugalur",
        "id": "PGR"
      },
      "geometry": {
        "type": "Point",
        "coordinates": [
          77.9914702,
          11.0512588
        ]
      }
    },
    {
      "type": "Feature",
      "properties": {
        "name": "Dindigul Junction",
        "id": "DG"
      },
      "geometry": {
        "type": "Point",
        "coordinates": [
          77.985264,
          10.3533568
        ]
      }
    },
    {
      "type": "Feature",
      "properties": {
        "name": "Omalur",
        "id": "OML"
      },
      "geometry": {
        "type": "Point",
        "coordinates": [
          78.0450908,
          11.7382737
        ]
      }
    },
    {
      "type": "Feature",
      "properties": {
        "name": "Devarapalli",
        "id": "DPE"
      },
      "geometry": {
        "type": "Point",
        "coordinates": [
          77.511933,
          13.7237673
        ]
      }
    },
    {
      "type": "Feature",
      "properties": {
        "name": "Malugur",
        "id": "MLU"
      },
      "geometry": {
        "type": "Point",
        "coordinates": [
          77.5414984,
          13.8916836
        ]
      }
    },
    {
      "type": "Feature",
      "properties": {
        "name": "Bardoli",
        "id": "BIY"
      },
      "geometry": {
        "type": "Point",
        "coordinates": [
          73.1049408,
          21.1338185
        ]
      }
    },
    {
      "type": "Feature",
      "properties": {
        "name": "Tiruvallur",
        "id": "TRL"
      },
      "geometry": {
        "type": "Point",
        "coordinates": [
          79.9126371,
          13.1161699
        ]
      }
    },
    {
      "type": "Feature",
      "properties": {
        "name": "Vadakara",
        "id": "BDJ"
      },
      "geometry": {
        "type": "Point",
        "coordinates": [
          75.5867571,
          11.5942638
        ]
      }
    },
    {
      "type": "Feature",
      "properties": {
        "name": "Malleswaram",
        "id": "MWM:1"
      },
      "geometry": {
        "type": "Point",
        "coordinates": [
          77.5634966,
          13.0007075
        ]
      }
    },
    {
      "type": "Feature",
      "properties": {
        "name": "Agra Cantonment",
        "id": "AGC"
      },
      "geometry": {
        "type": "Point",
        "coordinates": [
          77.9906109,
          27.1590463
        ]
      }
    },
    {
      "type": "Feature",
      "properties": {
        "name": "Chiplun",
        "id": "CHI"
      },
      "geometry": {
        "type": "Point",
        "coordinates": [
          73.5211512,
          17.5425423
        ]
      }
    },
    {
      "type": "Feature",
      "properties": {
        "name": "Khed",
        "id": "KHED"
      },
      "geometry": {
        "type": "Point",
        "coordinates": [
          73.4107693,
          17.712395
        ]
      }
    },
    {
      "type": "Feature",
      "properties": {
        "name": "Kanwalpura",
        "id": "KIW"
      },
      "geometry": {
        "type": "Point",
        "coordinates": [
          75.9828434,
          24.7806798
        ]
      }
    },
    {
      "type": "Feature",
      "properties": {
        "name": "Bhawani Mandi",
        "id": "BWM"
      },
      "geometry": {
        "type": "Point",
        "coordinates": [
          75.8300843,
          24.4194915
        ]
      }
    },
    {
      "type": "Feature",
      "properties": {
        "name": "Vaitarna",
        "id": "VTN"
      },
      "geometry": {
        "type": "Point",
        "coordinates": [
          72.8501464,
          19.5187363
        ]
      }
    },
    {
      "type": "Feature",
      "properties": {
        "name": "Saphale",
        "id": "SAH"
      },
      "geometry": {
        "type": "Point",
        "coordinates": [
          72.8206261,
          19.5778262
        ]
      }
    },
    {
      "type": "Feature",
      "properties": {
        "name": "Sikandarpur",
        "id": "SKQ"
      },
      "geometry": {
        "type": "Point",
        "coordinates": [
          77.0929924,
          28.4812824
        ]
      }
    },
    {
      "type": "Feature",
      "properties": {
        "name": "Sultanpur",
        "id": "SLN"
      },
      "geometry": {
        "type": "Point",
        "coordinates": [
          77.1600107,
          28.4985977
        ]
      }
    },
    {
      "type": "Feature",
      "properties": {
        "name": "New Delhi",
        "id": "NDLS"
      },
      "geometry": {
        "type": "Point",
        "coordinates": [
          77.2233502,
          28.6430376
        ]
      }
    },
    {
      "type": "Feature",
      "properties": {
        "name": "Anand Vihar",
        "id": "ANVR"
      },
      "geometry": {
        "type": "Point",
        "coordinates": [
          77.3160369,
          28.6468001
        ]
      }
    },
    {
      "type": "Feature",
      "properties": {
        "name": "Melattur Railway Station",
        "id": "MLTR"
      },
      "geometry": {
        "type": "Point",
        "coordinates": [
          76.2726519,
          11.0649592
        ]
      }
    },
    {
      "type": "Feature",
      "properties": {
        "name": "Lajpat Nagar",
        "id": "LPNR"
      },
      "geometry": {
        "type": "Point",
        "coordinates": [
          77.2364175,
          28.5705695
        ]
      }
    },
    {
      "type": "Feature",
      "properties": {
        "name": "Daliganj",
        "id": "DAL"
      },
      "geometry": {
        "type": "Point",
        "coordinates": [
          80.9275723,
          26.8753418
        ]
      }
    },
    {
      "type": "Feature",
      "properties": {
        "name": "Lucknow Railway Station",
        "id": "LKJ"
      },
      "geometry": {
        "type": "Point",
        "coordinates": [
          80.9243609,
          26.8311583
        ]
      }
    },
    {
      "type": "Feature",
      "properties": {
        "name": "Aishbagh",
        "id": "ASH"
      },
      "geometry": {
        "type": "Point",
        "coordinates": [
          80.9100165,
          26.8373901
        ]
      }
    },
    {
      "type": "Feature",
      "properties": {
        "name": "Lucknow City",
        "id": "LC"
      },
      "geometry": {
        "type": "Point",
        "coordinates": [
          80.9180893,
          26.8593065
        ]
      }
    },
    {
      "type": "Feature",
      "properties": {
        "name": "Asarva",
        "id": "ASV"
      },
      "geometry": {
        "type": "Point",
        "coordinates": [
          72.6128057,
          23.043983
        ]
      }
    },
    {
      "type": "Feature",
      "properties": {
        "name": "Sardargram Railwaystation (SDGM)",
        "id": "SDGM"
      },
      "geometry": {
        "type": "Point",
        "coordinates": [
          72.642662,
          23.0715285
        ]
      }
    },
    {
      "type": "Feature",
      "properties": {
        "name": "Dabhoda",
        "id": "DBO"
      },
      "geometry": {
        "type": "Point",
        "coordinates": [
          72.7446575,
          23.1653099
        ]
      }
    },
    {
      "type": "Feature",
      "properties": {
        "name": "Rakhiyal",
        "id": "RKH"
      },
      "geometry": {
        "type": "Point",
        "coordinates": [
          72.8988116,
          23.2535509
        ]
      }
    },
    {
      "type": "Feature",
      "properties": {
        "name": "Prantij",
        "id": "PRJ"
      },
      "geometry": {
        "type": "Point",
        "coordinates": [
          72.866343,
          23.4306941
        ]
      }
    },
    {
      "type": "Feature",
      "properties": {
        "name": "Raigadh Road",
        "id": "RGQ"
      },
      "geometry": {
        "type": "Point",
        "coordinates": [
          73.1841567,
          23.5969885
        ]
      }
    },
    {
      "type": "Feature",
      "properties": {
        "name": "Shamlaji Road",
        "id": "SJS"
      },
      "geometry": {
        "type": "Point",
        "coordinates": [
          73.3429732,
          23.6342328
        ]
      }
    },
    {
      "type": "Feature",
      "properties": {
        "name": "Lusadiya",
        "id": "LSD"
      },
      "geometry": {
        "type": "Point",
        "coordinates": [
          73.4213199,
          23.6856457
        ]
      }
    },
    {
      "type": "Feature",
      "properties": {
        "name": "Jagabor",
        "id": "JO"
      },
      "geometry": {
        "type": "Point",
        "coordinates": [
          73.4537802,
          23.7401432
        ]
      }
    },
    {
      "type": "Feature",
      "properties": {
        "name": "Bechhiwara",
        "id": "Bechhiwara"
      },
      "geometry": {
        "type": "Point",
        "coordinates": [
          73.5350968,
          23.7876083
        ]
      }
    },
    {
      "type": "Feature",
      "properties": {
        "name": "Umra",
        "id": "UMRA"
      },
      "geometry": {
        "type": "Point",
        "coordinates": [
          73.7721556,
          24.5229623
        ]
      }
    },
    {
      "type": "Feature",
      "properties": {
        "name": "Degana Junction",
        "id": "DNA:3;4"
      },
      "geometry": {
        "type": "Point",
        "coordinates": [
          74.3171042,
          26.8972554
        ]
      }
    },
    {
      "type": "Feature",
      "properties": {
        "name": "Changsari",
        "id": "CGS"
      },
      "geometry": {
        "type": "Point",
        "coordinates": [
          91.6940301,
          26.2615608
        ]
      }
    },
    {
      "type": "Feature",
      "properties": {
        "name": "New Jalpaiguri",
        "id": "NJP"
      },
      "geometry": {
        "type": "Point",
        "coordinates": [
          88.4433218,
          26.6831979
        ]
      }
    },
    {
      "type": "Feature",
      "properties": {
        "name": "Roorkee",
        "id": "RK"
      },
      "geometry": {
        "type": "Point",
        "coordinates": [
          77.8749412,
          29.852106
        ]
      }
    },
    {
      "type": "Feature",
      "properties": {
        "name": "Kartarpur",
        "id": "KRE"
      },
      "geometry": {
        "type": "Point",
        "coordinates": [
          75.4936677,
          31.4319793
        ]
      }
    },
    {
      "type": "Feature",
      "properties": {
        "name": "Padubidri",
        "id": "PDD"
      },
      "geometry": {
        "type": "Point",
        "coordinates": [
          74.767911,
          13.196992
        ]
      }
    },
    {
      "type": "Feature",
      "properties": {
        "name": "Innanje",
        "id": "INJ"
      },
      "geometry": {
        "type": "Point",
        "coordinates": [
          74.7618225,
          13.2561917
        ]
      }
    },
    {
      "type": "Feature",
      "properties": {
        "name": "Bhatkal",
        "id": "BTJL"
      },
      "geometry": {
        "type": "Point",
        "coordinates": [
          74.567302,
          13.987012
        ]
      }
    },
    {
      "type": "Feature",
      "properties": {
        "name": "Karwar",
        "id": "KAWR"
      },
      "geometry": {
        "type": "Point",
        "coordinates": [
          74.1827659,
          14.8199701
        ]
      }
    },
    {
      "type": "Feature",
      "properties": {
        "name": "Karmali",
        "id": "KRMI"
      },
      "geometry": {
        "type": "Point",
        "coordinates": [
          73.9246968,
          15.4906494
        ]
      }
    },
    {
      "type": "Feature",
      "properties": {
        "name": "Roha",
        "id": "ROHA"
      },
      "geometry": {
        "type": "Point",
        "coordinates": [
          73.1230944,
          18.4469576
        ]
      }
    },
    {
      "type": "Feature",
      "properties": {
        "name": "Tirur",
        "id": "TIR"
      },
      "geometry": {
        "type": "Point",
        "coordinates": [
          75.9223297,
          10.9171785
        ]
      }
    },
    {
      "type": "Feature",
      "properties": {
        "name": "Belgaum",
        "id": "BGM"
      },
      "geometry": {
        "type": "Point",
        "coordinates": [
          74.509065,
          15.8489677
        ]
      }
    },
    {
      "type": "Feature",
      "properties": {
        "name": "Patiala",
        "id": "PTA"
      },
      "geometry": {
        "type": "Point",
        "coordinates": [
          76.4020417,
          30.3424648
        ]
      }
    },
    {
      "type": "Feature",
      "properties": {
        "name": "Katpadi Junction",
        "id": "KPD"
      },
      "geometry": {
        "type": "Point",
        "coordinates": [
          79.1371008,
          12.9723301
        ]
      }
    },
    {
      "type": "Feature",
      "properties": {
        "name": "Pakala Junction",
        "id": "PAK"
      },
      "geometry": {
        "type": "Point",
        "coordinates": [
          79.1151174,
          13.4510187
        ]
      }
    },
    {
      "type": "Feature",
      "properties": {
        "name": "Kotala",
        "id": "KEN"
      },
      "geometry": {
        "type": "Point",
        "coordinates": [
          79.2945233,
          13.6115602
        ]
      }
    },
    {
      "type": "Feature",
      "properties": {
        "name": "Vizianagaram Junction",
        "id": "VZM"
      },
      "geometry": {
        "type": "Point",
        "coordinates": [
          83.3957069,
          18.1114018
        ]
      }
    },
    {
      "type": "Feature",
      "properties": {
        "name": "Santragachi Junction",
        "id": "SRC"
      },
      "geometry": {
        "type": "Point",
        "coordinates": [
          88.284688,
          22.5830394
        ]
      }
    },
    {
      "type": "Feature",
      "properties": {
        "name": "Visakhapatnam",
        "id": "VSKP"
      },
      "geometry": {
        "type": "Point",
        "coordinates": [
          83.2900966,
          17.7212425
        ]
      }
    },
    {
      "type": "Feature",
      "properties": {
        "name": "Peddadinne",
        "id": "PDNA"
      },
      "geometry": {
        "type": "Point",
        "coordinates": [
          77.829646,
          16.123944
        ]
      }
    },
    {
      "type": "Feature",
      "properties": {
        "name": "Gadwal",
        "id": "GWD"
      },
      "geometry": {
        "type": "Point",
        "coordinates": [
          77.809978,
          16.2275896
        ]
      }
    },
    {
      "type": "Feature",
      "properties": {
        "name": "Chigicherla",
        "id": "CCA"
      },
      "geometry": {
        "type": "Point",
        "coordinates": [
          77.6837341,
          14.517778
        ]
      }
    },
    {
      "type": "Feature",
      "properties": {
        "name": "Zangalapalle",
        "id": "ZPL"
      },
      "geometry": {
        "type": "Point",
        "coordinates": [
          77.641013,
          14.590995
        ]
      }
    },
    {
      "type": "Feature",
      "properties": {
        "name": "Dharmavaram Junction",
        "id": "DMM"
      },
      "geometry": {
        "type": "Point",
        "coordinates": [
          77.7161968,
          14.4261224
        ]
      }
    },
    {
      "type": "Feature",
      "properties": {
        "name": "Gooty Junction",
        "id": "GY"
      },
      "geometry": {
        "type": "Point",
        "coordinates": [
          77.6258004,
          15.1495393
        ]
      }
    },
    {
      "type": "Feature",
      "properties": {
        "name": "Malliyala",
        "id": "MYL"
      },
      "geometry": {
        "type": "Point",
        "coordinates": [
          77.7770223,
          15.3975819
        ]
      }
    },
    {
      "type": "Feature",
      "properties": {
        "name": "Alampur Road",
        "id": "ALPR"
      },
      "geometry": {
        "type": "Point",
        "coordinates": [
          78.0457846,
          15.9116887
        ]
      }
    },
    {
      "type": "Feature",
      "properties": {
        "name": "Chettinad",
        "id": "CTND"
      },
      "geometry": {
        "type": "Point",
        "coordinates": [
          78.7761995,
          10.1598976
        ]
      }
    },
    {
      "type": "Feature",
      "properties": {
        "name": "Pudukkottai",
        "id": "PDKT"
      },
      "geometry": {
        "type": "Point",
        "coordinates": [
          78.8015797,
          10.3696611
        ]
      }
    },
    {
      "type": "Feature",
      "properties": {
        "name": "Turavur",
        "id": "TUVR"
      },
      "geometry": {
        "type": "Point",
        "coordinates": [
          76.3103708,
          9.7749763
        ]
      }
    },
    {
      "type": "Feature",
      "properties": {
        "name": "Jalgaon Junction",
        "id": "JL"
      },
      "geometry": {
        "type": "Point",
        "coordinates": [
          75.563036,
          21.0183053
        ]
      }
    },
    {
      "type": "Feature",
      "properties": {
        "name": "Ramanagara",
        "id": "RMR"
      },
      "geometry": {
        "type": "Point",
        "coordinates": [
          77.2857089,
          12.7234569
        ]
      }
    },
    {
      "type": "Feature",
      "properties": {
        "name": "Mahalaxmi",
        "id": "MX"
      },
      "geometry": {
        "type": "Point",
        "coordinates": [
          72.8239733,
          18.9821414
        ]
      }
    },
    {
      "type": "Feature",
      "properties": {
        "name": "Andheri",
        "id": "ADH"
      },
      "geometry": {
        "type": "Point",
        "coordinates": [
          72.8467402,
          19.1194265
        ]
      }
    },
    {
      "type": "Feature",
      "properties": {
        "name": "Lower Parel",
        "id": "PL"
      },
      "geometry": {
        "type": "Point",
        "coordinates": [
          72.8305819,
          18.996213
        ]
      }
    },
    {
      "type": "Feature",
      "properties": {
        "name": "Diva Junction",
        "id": "DIVA"
      },
      "geometry": {
        "type": "Point",
        "coordinates": [
          73.0432052,
          19.188827
        ]
      }
    },
    {
      "type": "Feature",
      "properties": {
        "name": "Kalyan",
        "id": "KYN:7;8"
      },
      "geometry": {
        "type": "Point",
        "coordinates": [
          73.1308837,
          19.2348835
        ]
      }
    },
    {
      "type": "Feature",
      "properties": {
        "name": "Grant Road",
        "id": "GTR"
      },
      "geometry": {
        "type": "Point",
        "coordinates": [
          72.8159299,
          18.9632894
        ]
      }
    },
    {
      "type": "Feature",
      "properties": {
        "id": "DEC"
      },
      "geometry": {
        "type": "Point",
        "coordinates": [
          77.1159424,
          28.6126324
        ]
      }
    },
    {
      "type": "Feature",
      "properties": {
        "name": "Karjat",
        "id": "KJT"
      },
      "geometry": {
        "type": "Point",
        "coordinates": [
          73.3206852,
          18.9100836
        ]
      }
    },
    {
      "type": "Feature",
      "properties": {
        "name": "Veraval",
        "id": "VRL"
      },
      "geometry": {
        "type": "Point",
        "coordinates": [
          70.3708504,
          20.9124511
        ]
      }
    },
    {
      "type": "Feature",
      "properties": {
        "name": "Gondal",
        "id": "GDL"
      },
      "geometry": {
        "type": "Point",
        "coordinates": [
          70.7956163,
          21.9729315
        ]
      }
    },
    {
      "type": "Feature",
      "properties": {
        "name": "Tsakibanda",
        "id": "TKBN"
      },
      "geometry": {
        "type": "Point",
        "coordinates": [
          77.1784632,
          15.1634853
        ]
      }
    },
    {
      "type": "Feature",
      "properties": {
        "name": "Bevinahalu",
        "id": "BNL"
      },
      "geometry": {
        "type": "Point",
        "coordinates": [
          77.2111596,
          15.1672817
        ]
      }
    },
    {
      "type": "Feature",
      "properties": {
        "name": "Chakulia",
        "id": "CKU"
      },
      "geometry": {
        "type": "Point",
        "coordinates": [
          86.7213758,
          22.4782986
        ]
      }
    },
    {
      "type": "Feature",
      "properties": {
        "name": "Londa Junction",
        "id": "LD"
      },
      "geometry": {
        "type": "Point",
        "coordinates": [
          74.496541,
          15.4494989
        ]
      }
    },
    {
      "type": "Feature",
      "properties": {
        "name": "Miraj Junction",
        "id": "MRJ"
      },
      "geometry": {
        "type": "Point",
        "coordinates": [
          74.6390259,
          16.8196314
        ]
      }
    },
    {
      "type": "Feature",
      "properties": {
        "name": "Karad",
        "id": "KRD"
      },
      "geometry": {
        "type": "Point",
        "coordinates": [
          74.2151843,
          17.3117514
        ]
      }
    },
    {
      "type": "Feature",
      "properties": {
        "name": "Satara",
        "id": "STR"
      },
      "geometry": {
        "type": "Point",
        "coordinates": [
          74.0633639,
          17.6884571
        ]
      }
    },
    {
      "type": "Feature",
      "properties": {
        "name": "Bhanapur",
        "id": "BNP"
      },
      "geometry": {
        "type": "Point",
        "coordinates": [
          76.0391337,
          15.3866467
        ]
      }
    },
    {
      "type": "Feature",
      "properties": {
        "name": "Badami",
        "id": "BDM"
      },
      "geometry": {
        "type": "Point",
        "coordinates": [
          75.676639,
          15.9593122
        ]
      }
    },
    {
      "type": "Feature",
      "properties": {
        "name": "Bagalkot",
        "id": "BGK"
      },
      "geometry": {
        "type": "Point",
        "coordinates": [
          75.7011281,
          16.1799662
        ]
      }
    },
    {
      "type": "Feature",
      "properties": {
        "name": "Bijapur",
        "id": "BJP"
      },
      "geometry": {
        "type": "Point",
        "coordinates": [
          75.7396897,
          16.8300181
        ]
      }
    },
    {
      "type": "Feature",
      "properties": {
        "name": "Latur",
        "id": "LUR"
      },
      "geometry": {
        "type": "Point",
        "coordinates": [
          76.5557705,
          18.4297701
        ]
      }
    },
    {
      "type": "Feature",
      "properties": {
        "name": "Indara Junction",
        "id": "IAA"
      },
      "geometry": {
        "type": "Point",
        "coordinates": [
          83.6164243,
          25.9868809
        ]
      }
    },
    {
      "type": "Feature",
      "properties": {
        "name": "Ujjain Junction",
        "id": "UJN"
      },
      "geometry": {
        "type": "Point",
        "coordinates": [
          75.7824422,
          23.1796385
        ]
      }
    },
    {
      "type": "Feature",
      "properties": {
        "name": "Dewas",
        "id": "DWX"
      },
      "geometry": {
        "type": "Point",
        "coordinates": [
          76.0508559,
          22.9768612
        ]
      }
    },
    {
      "type": "Feature",
      "properties": {
        "name": "Dharwar",
        "id": "DWR"
      },
      "geometry": {
        "type": "Point",
        "coordinates": [
          75.0031496,
          15.4415707
        ]
      }
    },
    {
      "type": "Feature",
      "properties": {
        "name": "Bantwal",
        "id": "BNTL"
      },
      "geometry": {
        "type": "Point",
        "coordinates": [
          75.0339227,
          12.8779863
        ]
      }
    },
    {
      "type": "Feature",
      "properties": {
        "name": "Solapur",
        "id": "SUR"
      },
      "geometry": {
        "type": "Point",
        "coordinates": [
          75.8931925,
          17.6639506
        ]
      }
    },
    {
      "type": "Feature",
      "properties": {
        "name": "Bharoli",
        "id": "BHRL"
      },
      "geometry": {
        "type": "Point",
        "coordinates": [
          75.6167517,
          32.2713565
        ]
      }
    },
    {
      "type": "Feature",
      "properties": {
        "name": "Pathankot",
        "id": "PTK"
      },
      "geometry": {
        "type": "Point",
        "coordinates": [
          75.6478063,
          32.2720668
        ]
      }
    },
    {
      "type": "Feature",
      "properties": {
        "name": "Bari Brahman",
        "id": "BBMN"
      },
      "geometry": {
        "type": "Point",
        "coordinates": [
          74.9164917,
          32.6388452
        ]
      }
    },
    {
      "type": "Feature",
      "properties": {
        "name": "Udhampur",
        "id": "UHP"
      },
      "geometry": {
        "type": "Point",
        "coordinates": [
          75.154077,
          32.9261838
        ]
      }
    },
    {
      "type": "Feature",
      "properties": {
        "name": "Khadki",
        "id": "KK"
      },
      "geometry": {
        "type": "Point",
        "coordinates": [
          73.8404533,
          18.5641718
        ]
      }
    },
    {
      "type": "Feature",
      "properties": {
        "name": "Reddigudem",
        "id": "REM"
      },
      "geometry": {
        "type": "Point",
        "coordinates": [
          80.0492205,
          16.4429244
        ]
      }
    },
    {
      "type": "Feature",
      "properties": {
        "name": "Guntur Junction",
        "id": "GNT"
      },
      "geometry": {
        "type": "Point",
        "coordinates": [
          80.4432851,
          16.3013554
        ]
      }
    },
    {
      "type": "Feature",
      "properties": {
        "name": "Nalgonda",
        "id": "NLDA"
      },
      "geometry": {
        "type": "Point",
        "coordinates": [
          79.2833182,
          17.0609394
        ]
      }
    },
    {
      "type": "Feature",
      "properties": {
        "name": "Adoni",
        "id": "AD"
      },
      "geometry": {
        "type": "Point",
        "coordinates": [
          77.274325,
          15.6177364
        ]
      }
    },
    {
      "type": "Feature",
      "properties": {
        "name": "Yadagiri",
        "id": "YG"
      },
      "geometry": {
        "type": "Point",
        "coordinates": [
          77.1297715,
          16.744172
        ]
      }
    },
    {
      "type": "Feature",
      "properties": {
        "name": "Shahabad",
        "id": "SDB"
      },
      "geometry": {
        "type": "Point",
        "coordinates": [
          76.9434676,
          17.121698
        ]
      }
    },
    {
      "type": "Feature",
      "properties": {
        "id": "MWM:2"
      },
      "geometry": {
        "type": "Point",
        "coordinates": [
          77.5634443,
          13.0006863
        ]
      }
    },
    {
      "type": "Feature",
      "properties": {
        "name": "Carmelaram",
        "id": "CRLM"
      },
      "geometry": {
        "type": "Point",
        "coordinates": [
          77.7059369,
          12.9068184
        ]
      }
    },
    {
      "type": "Feature",
      "properties": {
        "name": "Nawandgi",
        "id": "NAW"
      },
      "geometry": {
        "type": "Point",
        "coordinates": [
          77.4269382,
          17.2164675
        ]
      }
    },
    {
      "type": "Feature",
      "properties": {
        "name": "Tandur",
        "id": "TDU"
      },
      "geometry": {
        "type": "Point",
        "coordinates": [
          77.585735,
          17.2507221
        ]
      }
    },
    {
      "type": "Feature",
      "properties": {
        "name": "Bidar",
        "id": "BIDR"
      },
      "geometry": {
        "type": "Point",
        "coordinates": [
          77.5154288,
          17.9116497
        ]
      }
    },
    {
      "type": "Feature",
      "properties": {
        "name": "Rameshwaram",
        "id": "RWM:1"
      },
      "geometry": {
        "type": "Point",
        "coordinates": [
          79.3081232,
          9.2817603
        ]
      }
    },
    {
      "type": "Feature",
      "properties": {
        "name": "Ratanpura",
        "id": "RTP"
      },
      "geometry": {
        "type": "Point",
        "coordinates": [
          83.7444266,
          25.9219071
        ]
      }
    },
    {
      "type": "Feature",
      "properties": {
        "name": "Tiruchendur",
        "id": "TCN"
      },
      "geometry": {
        "type": "Point",
        "coordinates": [
          78.1174746,
          8.5023247
        ]
      }
    },
    {
      "type": "Feature",
      "properties": {
        "name": "Tuticorin",
        "id": "TN"
      },
      "geometry": {
        "type": "Point",
        "coordinates": [
          78.1560624,
          8.8059628
        ]
      }
    },
    {
      "type": "Feature",
      "properties": {
        "name": "Manamadurai Junction",
        "id": "MNM"
      },
      "geometry": {
        "type": "Point",
        "coordinates": [
          78.4533331,
          9.68366
        ]
      }
    },
    {
      "type": "Feature",
      "properties": {
        "name": "Gudur Junction",
        "id": "GDR"
      },
      "geometry": {
        "type": "Point",
        "coordinates": [
          79.8453793,
          14.1484852
        ]
      }
    },
    {
      "type": "Feature",
      "properties": {
        "name": "Krishnapuram",
        "id": "KPU"
      },
      "geometry": {
        "type": "Point",
        "coordinates": [
          78.7744689,
          14.4962511
        ]
      }
    },
    {
      "type": "Feature",
      "properties": {
        "name": "Nellore",
        "id": "NLR"
      },
      "geometry": {
        "type": "Point",
        "coordinates": [
          79.9898887,
          14.461903
        ]
      }
    },
    {
      "type": "Feature",
      "properties": {
        "name": "Cuddapah",
        "id": "HX"
      },
      "geometry": {
        "type": "Point",
        "coordinates": [
          78.8296306,
          14.4512111
        ]
      }
    },
    {
      "type": "Feature",
      "properties": {
        "name": "Marikuppam",
        "id": "MKM"
      },
      "geometry": {
        "type": "Point",
        "coordinates": [
          78.2645385,
          12.9153924
        ]
      }
    },
    {
      "type": "Feature",
      "properties": {
        "name": "Chamarajanagar",
        "id": "CMNR"
      },
      "geometry": {
        "type": "Point",
        "coordinates": [
          76.9331345,
          11.9346624
        ]
      }
    },
    {
      "type": "Feature",
      "properties": {
        "name": "Puttur",
        "id": "PUT"
      },
      "geometry": {
        "type": "Point",
        "coordinates": [
          75.2049635,
          12.7687786
        ]
      }
    },
    {
      "type": "Feature",
      "properties": {
        "name": "Munirabad",
        "id": "MRB"
      },
      "geometry": {
        "type": "Point",
        "coordinates": [
          76.3356942,
          15.3083384
        ]
      }
    },
    {
      "type": "Feature",
      "properties": {
        "name": "Shimoga Town",
        "id": "SMET"
      },
      "geometry": {
        "type": "Point",
        "coordinates": [
          75.584015,
          13.9436021
        ]
      }
    },
    {
      "type": "Feature",
      "properties": {
        "name": "Talguppa",
        "id": "TLGP"
      },
      "geometry": {
        "type": "Point",
        "coordinates": [
          74.9144728,
          14.2140954
        ]
      }
    },
    {
      "type": "Feature",
      "properties": {
        "name": "Ghagwal",
        "id": "GHGL"
      },
      "geometry": {
        "type": "Point",
        "coordinates": [
          75.2130177,
          32.5049677
        ]
      }
    },
    {
      "type": "Feature",
      "properties": {
        "name": "Mannargudi",
        "id": "MQ"
      },
      "geometry": {
        "type": "Point",
        "coordinates": [
          79.4553009,
          10.6753489
        ]
      }
    },
    {
      "type": "Feature",
      "properties": {
        "name": "Prashanti Nilayam",
        "id": "SSPN"
      },
      "geometry": {
        "type": "Point",
        "coordinates": [
          77.7588476,
          14.1616245
        ]
      }
    },
    {
      "type": "Feature",
      "properties": {
        "name": "Tanguturu",
        "id": "TNR"
      },
      "geometry": {
        "type": "Point",
        "coordinates": [
          80.0337846,
          15.3375581
        ]
      }
    },
    {
      "type": "Feature",
      "properties": {
        "name": "Machavaram",
        "id": "MCVM"
      },
      "geometry": {
        "type": "Point",
        "coordinates": [
          80.5420971,
          16.0260076
        ]
      }
    },
    {
      "type": "Feature",
      "properties": {
        "name": "Tettu",
        "id": "TTU"
      },
      "geometry": {
        "type": "Point",
        "coordinates": [
          80.0058989,
          15.0424166
        ]
      }
    },
    {
      "type": "Feature",
      "properties": {
        "name": "Tenali Junction",
        "id": "TEL"
      },
      "geometry": {
        "type": "Point",
        "coordinates": [
          80.6403081,
          16.2417792
        ]
      }
    },
    {
      "type": "Feature",
      "properties": {
        "name": "Penumarru",
        "id": "PUMU"
      },
      "geometry": {
        "type": "Point",
        "coordinates": [
          80.774386,
          16.1338884
        ]
      }
    },
    {
      "type": "Feature",
      "properties": {
        "name": "Mangalagiri",
        "id": "MAG"
      },
      "geometry": {
        "type": "Point",
        "coordinates": [
          80.5641885,
          16.4375782
        ]
      }
    },
    {
      "type": "Feature",
      "properties": {
        "name": "Repalle",
        "id": "RAL"
      },
      "geometry": {
        "type": "Point",
        "coordinates": [
          80.8284574,
          16.019877
        ]
      }
    },
    {
      "type": "Feature",
      "properties": {
        "name": "Vemuru",
        "id": "VMU"
      },
      "geometry": {
        "type": "Point",
        "coordinates": [
          80.7426537,
          16.1778008
        ]
      }
    },
    {
      "type": "Feature",
      "properties": {
        "name": "Machilipatnam",
        "id": "MTM"
      },
      "geometry": {
        "type": "Point",
        "coordinates": [
          81.1386839,
          16.1716503
        ]
      }
    },
    {
      "type": "Feature",
      "properties": {
        "name": "Kovvur",
        "id": "KVR"
      },
      "geometry": {
        "type": "Point",
        "coordinates": [
          81.7264642,
          17.0068807
        ]
      }
    },
    {
      "type": "Feature",
      "properties": {
        "name": "Tadepalligudem",
        "id": "TDD"
      },
      "geometry": {
        "type": "Point",
        "coordinates": [
          81.5263882,
          16.8097985
        ]
      }
    },
    {
      "type": "Feature",
      "properties": {
        "name": "Chilakalapudi",
        "id": "CLU"
      },
      "geometry": {
        "type": "Point",
        "coordinates": [
          81.1623301,
          16.2129005
        ]
      }
    },
    {
      "type": "Feature",
      "properties": {
        "name": "Navabpalem",
        "id": "NBM"
      },
      "geometry": {
        "type": "Point",
        "coordinates": [
          81.6055778,
          16.8312213
        ]
      }
    },
    {
      "type": "Feature",
      "properties": {
        "name": "Godavari",
        "id": "GVN"
      },
      "geometry": {
        "type": "Point",
        "coordinates": [
          81.7712704,
          17.00702
        ]
      }
    },
    {
      "type": "Feature",
      "properties": {
        "name": "Mahbubnagar",
        "id": "MBNR"
      },
      "geometry": {
        "type": "Point",
        "coordinates": [
          77.9996136,
          16.7579177
        ]
      }
    },
    {
      "type": "Feature",
      "properties": {
        "name": "Vikarabad Junction",
        "id": "VKB"
      },
      "geometry": {
        "type": "Point",
        "coordinates": [
          77.9099374,
          17.3381679
        ]
      }
    },
    {
      "type": "Feature",
      "properties": {
        "name": "Nilambur Road",
        "id": "NIL"
      },
      "geometry": {
        "type": "Point",
        "coordinates": [
          76.2543247,
          11.2786503
        ]
      }
    },
    {
      "type": "Feature",
      "properties": {
        "name": "Okha",
        "id": "OKHA"
      },
      "geometry": {
        "type": "Point",
        "coordinates": [
          69.0766195,
          22.4717374
        ]
      }
    },
    {
      "type": "Feature",
      "properties": {
        "name": "Mithapur",
        "id": "MTHP"
      },
      "geometry": {
        "type": "Point",
        "coordinates": [
          69.0097713,
          22.4128019
        ]
      }
    },
    {
      "type": "Feature",
      "properties": {
        "name": "Bhuj",
        "id": "BHUJ"
      },
      "geometry": {
        "type": "Point",
        "coordinates": [
          69.6784427,
          23.2660728
        ]
      }
    },
    {
      "type": "Feature",
      "properties": {
        "name": "Siliguri Junction",
        "id": "SLG"
      },
      "geometry": {
        "type": "Point",
        "coordinates": [
          88.4136247,
          26.7239497
        ]
      }
    },
    {
      "type": "Feature",
      "properties": {
        "name": "New Mal Junction",
        "id": "NMZ"
      },
      "geometry": {
        "type": "Point",
        "coordinates": [
          88.7235148,
          26.8729918
        ]
      }
    },
    {
      "type": "Feature",
      "properties": {
        "name": "Falakata",
        "id": "FLK"
      },
      "geometry": {
        "type": "Point",
        "coordinates": [
          89.1914238,
          26.5392302
        ]
      }
    },
    {
      "type": "Feature",
      "properties": {
        "name": "Rangiya Junction",
        "id": "RNY"
      },
      "geometry": {
        "type": "Point",
        "coordinates": [
          91.60698,
          26.4467608
        ]
      }
    },
    {
      "type": "Feature",
      "properties": {
        "name": "Dimapur",
        "id": "DMV"
      },
      "geometry": {
        "type": "Point",
        "coordinates": [
          93.7283965,
          25.9071981
        ]
      }
    },
    {
      "type": "Feature",
      "properties": {
        "name": "Simaluguri Junction",
        "id": "SLGR"
      },
      "geometry": {
        "type": "Point",
        "coordinates": [
          94.7586369,
          26.9181928
        ]
      }
    },
    {
      "type": "Feature",
      "properties": {
        "name": "Barpathar",
        "id": "BXP"
      },
      "geometry": {
        "type": "Point",
        "coordinates": [
          93.8621654,
          26.1951622
        ]
      }
    },
    {
      "type": "Feature",
      "properties": {
        "name": "Dibrugarh Town",
        "id": "DBRT"
      },
      "geometry": {
        "type": "Point",
        "coordinates": [
          94.9008577,
          27.4778284
        ]
      }
    },
    {
      "type": "Feature",
      "properties": {
        "name": "Sapekhati",
        "id": "SPK"
      },
      "geometry": {
        "type": "Point",
        "coordinates": [
          95.1676257,
          27.1128545
        ]
      }
    },
    {
      "type": "Feature",
      "properties": {
        "name": "Furkating Junction",
        "id": "FKG"
      },
      "geometry": {
        "type": "Point",
        "coordinates": [
          94.0017753,
          26.4647571
        ]
      }
    },
    {
      "type": "Feature",
      "properties": {
        "name": "Salem Town",
        "id": "SXT"
      },
      "geometry": {
        "type": "Point",
        "coordinates": [
          78.1620512,
          11.6600473
        ]
      }
    },
    {
      "type": "Feature",
      "properties": {
        "name": "Dhampur",
        "id": "DPR"
      },
      "geometry": {
        "type": "Point",
        "coordinates": [
          78.5021975,
          29.3057506
        ]
      }
    },
    {
      "type": "Feature",
      "properties": {
        "name": "Najibabad Junction",
        "id": "NBD"
      },
      "geometry": {
        "type": "Point",
        "coordinates": [
          78.3363865,
          29.6037183
        ]
      }
    },
    {
      "type": "Feature",
      "properties": {
        "name": "Chikjajur Junction",
        "id": "JRU"
      },
      "geometry": {
        "type": "Point",
        "coordinates": [
          76.1390642,
          14.125237
        ]
      }
    },
    {
      "type": "Feature",
      "properties": {
        "name": "Jaunpur Junction",
        "id": "JNU"
      },
      "geometry": {
        "type": "Point",
        "coordinates": [
          82.6994065,
          25.7622487
        ]
      }
    },
    {
      "type": "Feature",
      "properties": {
        "name": "Rayagada",
        "id": "RGDA"
      },
      "geometry": {
        "type": "Point",
        "coordinates": [
          83.4103478,
          19.1767105
        ]
      }
    },
    {
      "type": "Feature",
      "properties": {
        "name": "Kazipet Junction",
        "id": "KZJ"
      },
      "geometry": {
        "type": "Point",
        "coordinates": [
          79.5118595,
          17.9749783
        ]
      }
    },
    {
      "type": "Feature",
      "properties": {
        "name": "Chintalpalli",
        "id": "CLE"
      },
      "geometry": {
        "type": "Point",
        "coordinates": [
          79.7019789,
          17.9143325
        ]
      }
    },
    {
      "type": "Feature",
      "properties": {
        "name": "Kesamudram",
        "id": "KDM"
      },
      "geometry": {
        "type": "Point",
        "coordinates": [
          79.8969536,
          17.6859424
        ]
      }
    },
    {
      "type": "Feature",
      "properties": {
        "name": "Nekkonda",
        "id": "NKD"
      },
      "geometry": {
        "type": "Point",
        "coordinates": [
          79.8044106,
          17.7947563
        ]
      }
    },
    {
      "type": "Feature",
      "properties": {
        "name": "Garla",
        "id": "GLA"
      },
      "geometry": {
        "type": "Point",
        "coordinates": [
          80.1392949,
          17.4860901
        ]
      }
    },
    {
      "type": "Feature",
      "properties": {
        "name": "Itarsi Junction",
        "id": "ET"
      },
      "geometry": {
        "type": "Point",
        "coordinates": [
          77.767281,
          22.6080995
        ]
      }
    },
    {
      "type": "Feature",
      "properties": {
        "name": "Bir",
        "id": "BIR"
      },
      "geometry": {
        "type": "Point",
        "coordinates": [
          76.5469463,
          22.0526482
        ]
      }
    },
    {
      "type": "Feature",
      "properties": {
        "name": "Batala Junction",
        "id": "BAT"
      },
      "geometry": {
        "type": "Point",
        "coordinates": [
          75.193808,
          31.8213001
        ]
      }
    },
    {
      "type": "Feature",
      "properties": {
        "name": "Gurdaspur",
        "id": "GSP"
      },
      "geometry": {
        "type": "Point",
        "coordinates": [
          75.4202647,
          32.0436565
        ]
      }
    },
    {
      "type": "Feature",
      "properties": {
        "name": "Margherita",
        "id": "MRG"
      },
      "geometry": {
        "type": "Point",
        "coordinates": [
          95.6598562,
          27.2899156
        ]
      }
    },
    {
      "type": "Feature",
      "properties": {
        "name": "Jogighopa",
        "id": "JPZ"
      },
      "geometry": {
        "type": "Point",
        "coordinates": [
          90.5752922,
          26.2404912
        ]
      }
    },
    {
      "type": "Feature",
      "properties": {
        "name": "Mariani Junction",
        "id": "MXN"
      },
      "geometry": {
        "type": "Point",
        "coordinates": [
          94.30854,
          26.6527607
        ]
      }
    },
    {
      "type": "Feature",
      "properties": {
        "name": "Fazilka",
        "id": "FKA"
      },
      "geometry": {
        "type": "Point",
        "coordinates": [
          74.0260747,
          30.4089359
        ]
      }
    },
    {
      "type": "Feature",
      "properties": {
        "name": "Fakiragram Junction",
        "id": "FKM"
      },
      "geometry": {
        "type": "Point",
        "coordinates": [
          90.1860842,
          26.3643854
        ]
      }
    },
    {
      "type": "Feature",
      "properties": {
        "name": "Goalpara Town",
        "id": "GLPT"
      },
      "geometry": {
        "type": "Point",
        "coordinates": [
          90.6229849,
          26.1253816
        ]
      }
    },
    {
      "type": "Feature",
      "properties": {
        "name": "Dhubri",
        "id": "DBB"
      },
      "geometry": {
        "type": "Point",
        "coordinates": [
          89.9775295,
          26.0224146
        ]
      }
    },
    {
      "type": "Feature",
      "properties": {
        "name": "Jangam",
        "id": "ZN"
      },
      "geometry": {
        "type": "Point",
        "coordinates": [
          79.1540983,
          17.7245753
        ]
      }
    },
    {
      "type": "Feature",
      "properties": {
        "name": "Giddalur",
        "id": "GID"
      },
      "geometry": {
        "type": "Point",
        "coordinates": [
          78.9259682,
          15.3795964
        ]
      }
    },
    {
      "type": "Feature",
      "properties": {
        "name": "Bhimavaram Town",
        "id": "BVRT"
      },
      "geometry": {
        "type": "Point",
        "coordinates": [
          81.517148,
          16.5477674
        ]
      }
    },
    {
      "type": "Feature",
      "properties": {
        "name": "Bhimavaram Junction",
        "id": "BVRM"
      },
      "geometry": {
        "type": "Point",
        "coordinates": [
          81.5374494,
          16.5443396
        ]
      }
    },
    {
      "type": "Feature",
      "properties": {
        "name": "Undi",
        "id": "UNDI"
      },
      "geometry": {
        "type": "Point",
        "coordinates": [
          81.4591513,
          16.5804109
        ]
      }
    },
    {
      "type": "Feature",
      "properties": {
        "name": "Kurichedu",
        "id": "KCD"
      },
      "geometry": {
        "type": "Point",
        "coordinates": [
          79.5719356,
          15.9126903
        ]
      }
    },
    {
      "type": "Feature",
      "properties": {
        "name": "Narasapur",
        "id": "NS"
      },
      "geometry": {
        "type": "Point",
        "coordinates": [
          81.6992535,
          16.4451432
        ]
      }
    },
    {
      "type": "Feature",
      "properties": {
        "name": "Putlacheruvu",
        "id": "PCU"
      },
      "geometry": {
        "type": "Point",
        "coordinates": [
          81.1122175,
          16.4845582
        ]
      }
    },
    {
      "type": "Feature",
      "properties": {
        "name": "Harpalpur",
        "id": "HPP"
      },
      "geometry": {
        "type": "Point",
        "coordinates": [
          79.3343225,
          25.2905787
        ]
      }
    },
    {
      "type": "Feature",
      "properties": {
        "name": "Nizamabad",
        "id": "NZB"
      },
      "geometry": {
        "type": "Point",
        "coordinates": [
          78.103892,
          18.6789957
        ]
      }
    },
    {
      "type": "Feature",
      "properties": {
        "name": "Tuggali",
        "id": "TGL"
      },
      "geometry": {
        "type": "Point",
        "coordinates": [
          77.5307638,
          15.3112548
        ]
      }
    },
    {
      "type": "Feature",
      "properties": {
        "name": "Rangapuram",
        "id": "RGM"
      },
      "geometry": {
        "type": "Point",
        "coordinates": [
          78.058556,
          15.4057806
        ]
      }
    },
    {
      "type": "Feature",
      "properties": {
        "name": "Nandyal",
        "id": "NDL"
      },
      "geometry": {
        "type": "Point",
        "coordinates": [
          78.4708639,
          15.4692162
        ]
      }
    },
    {
      "type": "Feature",
      "properties": {
        "name": "Madanapalle Road",
        "id": "MPL"
      },
      "geometry": {
        "type": "Point",
        "coordinates": [
          78.5533362,
          13.6439277
        ]
      }
    },
    {
      "type": "Feature",
      "properties": {
        "name": "Kalikiri",
        "id": "KCI"
      },
      "geometry": {
        "type": "Point",
        "coordinates": [
          78.8000171,
          13.6436227
        ]
      }
    },
    {
      "type": "Feature",
      "properties": {
        "name": "Parbhani Junction",
        "id": "PBN"
      },
      "geometry": {
        "type": "Point",
        "coordinates": [
          76.7733394,
          19.2576693
        ]
      }
    },
    {
      "type": "Feature",
      "properties": {
        "name": "Jalna",
        "id": "J"
      },
      "geometry": {
        "type": "Point",
        "coordinates": [
          75.8918897,
          19.8310637
        ]
      }
    },
    {
      "type": "Feature",
      "properties": {
        "name": "Kadiri",
        "id": "KRY"
      },
      "geometry": {
        "type": "Point",
        "coordinates": [
          78.1669527,
          14.1108249
        ]
      }
    },
    {
      "type": "Feature",
      "properties": {
        "name": "Nallacheruvu",
        "id": "NCU"
      },
      "geometry": {
        "type": "Point",
        "coordinates": [
          78.1780093,
          14.0208911
        ]
      }
    },
    {
      "type": "Feature",
      "properties": {
        "name": "Mudigubba",
        "id": "MGB"
      },
      "geometry": {
        "type": "Point",
        "coordinates": [
          77.9949764,
          14.3495729
        ]
      }
    },
    {
      "type": "Feature",
      "properties": {
        "name": "Donakonda",
        "id": "DKD"
      },
      "geometry": {
        "type": "Point",
        "coordinates": [
          79.4878327,
          15.8358763
        ]
      }
    },
    {
      "type": "Feature",
      "properties": {
        "name": "Khandwa",
        "id": "KNW"
      },
      "geometry": {
        "type": "Point",
        "coordinates": [
          76.3535852,
          21.823256
        ]
      }
    },
    {
      "type": "Feature",
      "properties": {
        "name": "Latur Road Junction",
        "id": "LTRR"
      },
      "geometry": {
        "type": "Point",
        "coordinates": [
          76.8451212,
          18.5062253
        ]
      }
    },
    {
      "type": "Feature",
      "properties": {
        "name": "Yedshi",
        "id": "YSI"
      },
      "geometry": {
        "type": "Point",
        "coordinates": [
          75.9770884,
          18.3172848
        ]
      }
    },
    {
      "type": "Feature",
      "properties": {
        "name": "Gwalior Junction",
        "id": "GWL"
      },
      "geometry": {
        "type": "Point",
        "coordinates": [
          78.1819742,
          26.2161734
        ]
      }
    },
    {
      "type": "Feature",
      "properties": {
        "name": "Washim",
        "id": "WHM"
      },
      "geometry": {
        "type": "Point",
        "coordinates": [
          77.1483006,
          20.1024688
        ]
      }
    },
    {
      "type": "Feature",
      "properties": {
        "name": "Purna Junction",
        "id": "PAU"
      },
      "geometry": {
        "type": "Point",
        "coordinates": [
          77.0254133,
          19.1803133
        ]
      }
    },
    {
      "type": "Feature",
      "properties": {
        "name": "Daund Junction",
        "id": "DD"
      },
      "geometry": {
        "type": "Point",
        "coordinates": [
          74.5787472,
          18.4637955
        ]
      }
    },
    {
      "type": "Feature",
      "properties": {
        "name": "Kalluru Junction",
        "id": "KLU"
      },
      "geometry": {
        "type": "Point",
        "coordinates": [
          77.5814384,
          14.9249466
        ]
      }
    },
    {
      "type": "Feature",
      "properties": {
        "name": "Tuni",
        "id": "TUNI"
      },
      "geometry": {
        "type": "Point",
        "coordinates": [
          82.5420254,
          17.3606953
        ]
      }
    },